latitude,longitude,name
-45.87876,170.502798,Dunedin Office
-41.28646,174.776236,Wellington Office
-46.098799,168.945819,Gore Office
-46.413187,168.353773,Invercargill Office
-35.11733,173.267559,Kaitai Office